[{"name":"Padang Mat Sirat","district":"Langkawi","state":"Kedah","coords":{"lat":6.35423,"lon":99.73404}},{"name":"Ayer Hangat","district":"Langkawi","state":"Kedah","coords":{"lat":6.42062,"lon":99.82199}},{"name":"Kuah","district":"Langkawi","state":"Kedah","coords":{"lat":6.32649,"lon":99.8432}},{"name":"Jerantut","district":"Daerah Jerantut","state":"Pahang","coords":{"lat":3.936,"lon":102.3626}},{"name":"Kampung New Zealand","district":"Maran","state":"Pahang","coords":{"lat":3.65,"lon":102.86667}},{"name":"Maran","district":"Maran","state":"Pahang","coords":{"lat":3.586,"lon":102.773}},{"name":"Ceruh","district":"Raub","state":"Pahang","coords":{"lat":3.9042,"lon":101.8132}},{"name":"Kampung Dong","district":"Raub","state":"Pahang","coords":{"lat":3.8959,"lon":101.8947}},{"name":"Raub","district":"Raub","state":"Pahang","coords":{"lat":3.7899,"lon":101.857}},{"name":"Teras","district":"Raub","state":"Pahang","coords":{"lat":3.742,"lon":101.8112}},{"name":"Bentung","district":"Bentong","state":"Pahang","coords":{"lat":3.5316,"lon":101.9038}},{"name":"Tanjong Malim","district":"Batang Padang","state":"Perak","coords":{"lat":3.681,"lon":101.5198}},{"name":"Kerling","district":"Hulu Selangor","state":"Selangor","coords":{"lat":3.5908,"lon":101.6024}},{"name":"Kuala Kubu Baharu","district":"Hulu Selangor","state":"Selangor","coords":{"lat":3.5638,"lon":101.6581}},{"name":"Parit Sulung","district":"Daerah Batu Pahat","state":"Johor","coords":{"lat":1.976,"lon":102.8835}},{"name":"Parit Jawa","district":"Daerah Muar","state":"Johor","coords":{"lat":1.9577,"lon":102.6401}},{"name":"Tongkang Pechah","district":"Daerah Batu Pahat","state":"Johor","coords":{"lat":1.9203,"lon":102.9561}},{"name":"Batu Pahat","district":"Daerah Batu Pahat","state":"Johor","coords":{"lat":1.8548,"lon":102.9325}},{"name":"Semerah","district":"Daerah Muar","state":"Johor","coords":{"lat":1.8845,"lon":102.7832}},{"name":"Ayer Hitam","district":"Daerah Batu Pahat","state":"Johor","coords":{"lat":1.915,"lon":103.1808}},{"name":"Parit Raja","district":"Daerah Batu Pahat","state":"Johor","coords":{"lat":1.8681,"lon":103.1124}},{"name":"Layang Layang","district":"Daerah Keluang","state":"Johor","coords":{"lat":1.8154,"lon":103.4784}},{"name":"Simpang Renggam","district":"Daerah Keluang","state":"Johor","coords":{"lat":1.825,"lon":103.3107}},{"name":"Senggarang","district":"Daerah Batu Pahat","state":"Johor","coords":{"lat":1.7511,"lon":103.0494}},{"name":"Rengit","district":"Daerah Batu Pahat","state":"Johor","coords":{"lat":1.6807,"lon":103.1478}},{"name":"Pekan Nenas","district":"Daerah Pontian","state":"Johor","coords":{"lat":1.51,"lon":103.5141}},{"name":"Ayer Baloi","district":"Daerah Pontian","state":"Johor","coords":{"lat":1.5915,"lon":103.3327}},{"name":"Pontian Besar","district":"Daerah Pontian","state":"Johor","coords":{"lat":1.5059,"lon":103.3816}},{"name":"Pontian Kechil","district":"Daerah Pontian","state":"Johor","coords":{"lat":1.4866,"lon":103.3896}},{"name":"Kukup","district":"Daerah Pontian","state":"Johor","coords":{"lat":1.3233,"lon":103.4426}},{"name":"Kampung Pasir Gudang Baru","district":"Daerah Johor Baharu","state":"Johor","coords":{"lat":1.4726,"lon":103.878}},{"name":"Pasir Gudang","district":"Daerah Johor Baharu","state":"Johor","coords":{"lat":1.462,"lon":103.9053}},{"name":"Kampung Larkin Lama","district":"Daerah Johor Baharu","state":"Johor","coords":{"lat":1.5024,"lon":103.744}},{"name":"Mawai","district":"Daerah Kota Tinggi","state":"Johor","coords":{"lat":1.8685,"lon":103.9568}},{"name":"Kampung Sedenak","district":"Kulaijaya","state":"Johor","coords":{"lat":1.7114,"lon":103.5276}},{"name":"Kota Tinggi","district":"Daerah Kota Tinggi","state":"Johor","coords":{"lat":1.7381,"lon":103.8999}},{"name":"Taman Senai","district":"Kulaijaya","state":"Johor","coords":{"lat":1.6006,"lon":103.6419}},{"name":"Kulai","district":"Kulaijaya","state":"Johor","coords":{"lat":1.6561,"lon":103.6032}},{"name":"Kampung Kangkar Pulai","district":"Kulaijaya","state":"Johor","coords":{"lat":1.5591,"lon":103.5863}},{"name":"Skudai","district":"Daerah Johor Baharu","state":"Johor","coords":{"lat":1.53741,"lon":103.65779}},{"name":"Kempas","district":"Daerah Johor Baharu","state":"Johor","coords":{"lat":1.5489,"lon":103.6965}},{"name":"Pelentong","district":"Daerah Johor Baharu","state":"Johor","coords":{"lat":1.5243,"lon":103.824}},{"name":"Masai","district":"Daerah Johor Baharu","state":"Johor","coords":{"lat":1.4907,"lon":103.8788}},{"name":"Johor Bahru","district":"Daerah Johor Baharu","state":"Johor","coords":{"lat":1.4655,"lon":103.7578}},{"name":"Gelang Patah","district":"Daerah Johor Baharu","state":"Johor","coords":{"lat":1.4484,"lon":103.5873}},{"name":"Kangkar Sedili Kecil","district":"Daerah Kota Tinggi","state":"Johor","coords":{"lat":1.75,"lon":104.15}},{"name":"Pengerang","district":"Daerah Kota Tinggi","state":"Johor","coords":{"lat":1.3651,"lon":104.1118}},{"name":"Paloh","district":"Daerah Keluang","state":"Johor","coords":{"lat":2.1904,"lon":103.1963}},{"name":"Kluang","district":"Daerah Keluang","state":"Johor","coords":{"lat":2.03046,"lon":103.31689}},{"name":"Niyor","district":"Daerah Keluang","state":"Johor","coords":{"lat":2.0945,"lon":103.2807}},{"name":"Yong Peng","district":"Daerah Batu Pahat","state":"Johor","coords":{"lat":2.0136,"lon":103.0659}},{"name":"Mersing","district":"Daerah Mersing","state":"Johor","coords":{"lat":2.4312,"lon":103.8405}},{"name":"Segamat","district":"Daerah Segamat","state":"Johor","coords":{"lat":2.5148,"lon":102.8158}},{"name":"Tangkak","district":"Ledang","state":"Johor","coords":{"lat":2.2673,"lon":102.5453}},{"name":"Gerisek","district":"Ledang","state":"Johor","coords":{"lat":2.2097,"lon":102.7095}},{"name":"Pagoh","district":"Daerah Muar","state":"Johor","coords":{"lat":2.1495,"lon":102.7704}},{"name":"Bandar Sungai Mati","district":"Ledang","state":"Johor","coords":{"lat":2.1467,"lon":102.5655}},{"name":"Muar","district":"Daerah Muar","state":"Johor","coords":{"lat":2.0442,"lon":102.5689}},{"name":"Bakri","district":"Daerah Muar","state":"Johor","coords":{"lat":2.0441,"lon":102.6527}},{"name":"Labis","district":"Daerah Segamat","state":"Johor","coords":{"lat":2.385,"lon":103.021}},{"name":"Bekok","district":"Daerah Segamat","state":"Johor","coords":{"lat":2.2972,"lon":103.1302}},{"name":"Chaah","district":"Daerah Segamat","state":"Johor","coords":{"lat":2.249,"lon":103.048}},{"name":"Kuala Selangor","district":"Kuala Selangor","state":"Selangor","coords":{"lat":3.35,"lon":101.25}},{"name":"Batang Berjuntai","district":"Kuala Selangor","state":"Selangor","coords":{"lat":3.38333,"lon":101.41667}},{"name":"Batu Arang","district":"Gombak","state":"Selangor","coords":{"lat":3.31667,"lon":101.46667}},{"name":"Kapar","district":"Klang","state":"Selangor","coords":{"lat":3.13333,"lon":101.38333}},{"name":"Meru","district":"Klang","state":"Selangor","coords":{"lat":3.13622,"lon":101.4394}},{"name":"Shah Alam","district":"Petaling","state":"Selangor","coords":{"lat":3.08507,"lon":101.53281}},{"name":"Klang","district":"Klang","state":"Selangor","coords":{"lat":3.03667,"lon":101.44333}},{"name":"Gedangsa","district":"Hulu Selangor","state":"Selangor","coords":{"lat":3.73333,"lon":101.4}},{"name":"Cangkat Jong","district":"Hilir Perak","state":"Perak","coords":{"lat":3.9851,"lon":101.1237}},{"name":"Sungkai","district":"Batang Padang","state":"Perak","coords":{"lat":4,"lon":101.31667}},{"name":"Slim River","district":"Batang Padang","state":"Perak","coords":{"lat":3.83333,"lon":101.4}},{"name":"Sekinchan","district":"Sabak Bernam","state":"Selangor","coords":{"lat":3.5074,"lon":101.1041}},{"name":"Cukai","district":"Kemaman","state":"Terengganu","coords":{"lat":4.25,"lon":103.41667}},{"name":"Kuala Lipis","district":"Lipis","state":"Pahang","coords":{"lat":4.1842,"lon":102.0468}},{"name":"Val Dor","district":"Seberang Perai Selatan","state":"Penang","coords":{"lat":5.25198,"lon":100.49046}},{"name":"Papar","district":"Papar","state":"Sabah","coords":{"lat":5.73333,"lon":115.93333}},{"name":"Bongawan","district":"Papar","state":"Sabah","coords":{"lat":5.53333,"lon":115.85}},{"name":"Kuala Penyu","district":"Kuala Penyu","state":"Sabah","coords":{"lat":5.5714,"lon":115.5984}},{"name":"Kota Kinabalu","district":"Kota Kinabalu","state":"Sabah","coords":{"lat":5.9749,"lon":116.0724}},{"name":"Donggongon","district":"Penampang","state":"Sabah","coords":{"lat":5.90702,"lon":116.10146}},{"name":"Putatan","district":"Penampang","state":"Sabah","coords":{"lat":5.9258,"lon":116.06094}},{"name":"Kinarut","district":"Papar","state":"Sabah","coords":{"lat":5.8231,"lon":116.0466}},{"name":"Tambunan","district":"Tambunan","state":"Sabah","coords":{"lat":5.71667,"lon":116.4}},{"name":"Ranau","district":"Ranau","state":"Sabah","coords":{"lat":5.9538,"lon":116.6641}},{"name":"Semporna","district":"Semporna","state":"Sabah","coords":{"lat":4.48178,"lon":118.61119}},{"name":"Labuan","district":"W.P. Labuan","state":"Labuan","coords":{"lat":5.28028,"lon":115.2475}},{"name":"Sipitang","district":"Sipitang","state":"Sabah","coords":{"lat":5.07903,"lon":115.54964}},{"name":"Beaufort","district":"Beaufort","state":"Sabah","coords":{"lat":5.3473,"lon":115.7455}},{"name":"Tenom","district":"Tenom District","state":"Sabah","coords":{"lat":5.11922,"lon":115.93719}},{"name":"Lahad Datu","district":"Lahad Datu","state":"Sabah","coords":{"lat":5.02298,"lon":118.32897}},{"name":"Beluran","district":"Beluran","state":"Sabah","coords":{"lat":5.8956,"lon":117.5557}},{"name":"Sandakan","district":"Bahagian Sandakan","state":"Sabah","coords":{"lat":5.8402,"lon":118.1179}},{"name":"Keningau","district":"Keningau","state":"Sabah","coords":{"lat":5.3378,"lon":116.1602}},{"name":"Bandar Nabawan","district":"Nabawan","state":"Sabah","coords":{"lat":5.0393,"lon":116.4274}},{"name":"Wallace Bay","district":"Bahagian Tawau","state":"Sabah","coords":{"lat":4.2555,"lon":117.6678}},{"name":"Tawau","district":"Bahagian Tawau","state":"Sabah","coords":{"lat":4.24482,"lon":117.89115}},{"name":"Dungun","district":"Dungun","state":"Terengganu","coords":{"lat":4.775,"lon":103.4162}},{"name":"Paka","district":"Dungun","state":"Terengganu","coords":{"lat":4.6374,"lon":103.4368}},{"name":"Kertih","district":"Kemaman","state":"Terengganu","coords":{"lat":4.5141,"lon":103.4483}},{"name":"Kampung Kuala Balah","district":"Jeli","state":"Kelantan","coords":{"lat":5.41667,"lon":101.91667}},{"name":"Gerik","district":"Ulu Perak","state":"Perak","coords":{"lat":5.41667,"lon":101.13333}},{"name":"Lunas","district":"Kulim","state":"Kedah","coords":{"lat":5.43058,"lon":100.53012}},{"name":"Kulim","district":"Kulim","state":"Kedah","coords":{"lat":5.36499,"lon":100.56177}},{"name":"Mahang","district":"Kulim","state":"Kedah","coords":{"lat":5.32511,"lon":100.74866}},{"name":"Selama","district":"Kampar","state":"Perak","coords":{"lat":5.2236,"lon":100.69262}},{"name":"Redang Panjang","district":"Kampar","state":"Perak","coords":{"lat":5.11667,"lon":100.78333}},{"name":"Bandar Baharu","district":"Bandar Baharu","state":"Kedah","coords":{"lat":5.13428,"lon":100.49549}},{"name":"Alur Pongsu","district":"Kerian","state":"Perak","coords":{"lat":5.03333,"lon":100.58333}},{"name":"Bagan Serai","district":"Kerian","state":"Perak","coords":{"lat":5.0108,"lon":100.54101}},{"name":"Padang Serai","district":"Kulim","state":"Kedah","coords":{"lat":5.51307,"lon":100.55356}},{"name":"Bedong","district":"Kuala Muda","state":"Kedah","coords":{"lat":5.72743,"lon":100.50876}},{"name":"Kampung Kupang","district":"Baling","state":"Kedah","coords":{"lat":5.63638,"lon":100.84517}},{"name":"Pulai","district":"Baling","state":"Kedah","coords":{"lat":5.65489,"lon":100.89541}},{"name":"Kampung Air Lanas","district":"Jeli","state":"Kelantan","coords":{"lat":5.77613,"lon":101.88504}},{"name":"Kampung Jeli","district":"Jeli","state":"Kelantan","coords":{"lat":5.7,"lon":101.83333}},{"name":"Siburan","district":"Bahagian Kuching","state":"Sarawak","coords":{"lat":1.36667,"lon":110.4}},{"name":"Tebedu","district":"Serian","state":"Sarawak","coords":{"lat":1.02656,"lon":110.36331}},{"name":"Bau","district":"Bau","state":"Sarawak","coords":{"lat":1.41667,"lon":110.15}},{"name":"Sebuyau","district":"Simunjan","state":"Sarawak","coords":{"lat":1.51667,"lon":110.93333}},{"name":"Kampung Cangkat Jering","district":"Larut Matang & Selama","state":"Perak","coords":{"lat":4.78333,"lon":100.71667}},{"name":"Simpang Empat","district":"Kerian","state":"Perak","coords":{"lat":4.95,"lon":100.63333}},{"name":"Kamunting","district":"Larut Matang & Selama","state":"Perak","coords":{"lat":4.88333,"lon":100.73333}},{"name":"Batu Kurau","district":"Larut Matang & Selama","state":"Perak","coords":{"lat":4.96667,"lon":100.8}},{"name":"Kampung Enggor","district":"Daerah Kuala Kangsar","state":"Perak","coords":{"lat":4.82577,"lon":100.97038}},{"name":"Taiping","district":"Larut Matang & Selama","state":"Perak","coords":{"lat":4.85,"lon":100.73333}},{"name":"Padang Rengas","district":"Daerah Kuala Kangsar","state":"Perak","coords":{"lat":4.76667,"lon":100.85}},{"name":"Terung","district":"Larut Matang & Selama","state":"Perak","coords":{"lat":4.71667,"lon":100.73333}},{"name":"Kuala Kangsar","district":"Daerah Kuala Kangsar","state":"Perak","coords":{"lat":4.76667,"lon":100.93333}},{"name":"Beruas","district":"Manjung (Dinding)","state":"Perak","coords":{"lat":4.5,"lon":100.78333}},{"name":"Berincang","district":"Cameron Highlands","state":"Pahang","coords":{"lat":4.49112,"lon":101.38694}},{"name":"Chemor","district":"Daerah Kinta","state":"Perak","coords":{"lat":4.7211,"lon":101.1189}},{"name":"Tanjung Rambutan","district":"Daerah Kinta","state":"Perak","coords":{"lat":4.6706,"lon":101.1546}},{"name":"Ipoh","district":"Daerah Kinta","state":"Perak","coords":{"lat":4.5841,"lon":101.0829}},{"name":"Lahat","district":"Daerah Kinta","state":"Perak","coords":{"lat":4.5388,"lon":101.0365}},{"name":"Menglembu","district":"Daerah Kinta","state":"Perak","coords":{"lat":4.5594,"lon":101.0484}},{"name":"Gua Musang","district":"Gua Musang","state":"Kelantan","coords":{"lat":4.88441,"lon":101.96857}},{"name":"Kuala Terengganu","district":"Kuala Terengganu","state":"Terengganu","coords":{"lat":5.3302,"lon":103.1408}},{"name":"Marang","district":"Marang","state":"Terengganu","coords":{"lat":5.2056,"lon":103.2059}},{"name":"Ajil","district":"Hulu Terengganu","state":"Terengganu","coords":{"lat":5.0829,"lon":103.0857}},{"name":"Kampung Teluk Kemang","district":"Port Dickson","state":"Negeri Sembilan","coords":{"lat":2.46146,"lon":101.85951}},{"name":"Pasir Panjang","district":"Port Dickson","state":"Negeri Sembilan","coords":{"lat":2.4322,"lon":101.9352}},{"name":"Kampung Kuala Linggi","state":"Melaka","coords":{"lat":2.38527,"lon":101.97311}},{"name":"Lubok China","district":"Alor Gajah","state":"Melaka","coords":{"lat":2.4536,"lon":102.0695}},{"name":"Tampin","district":"Tampin","state":"Negeri Sembilan","coords":{"lat":2.4701,"lon":102.2302}},{"name":"Kampung Tebong","district":"Alor Gajah","state":"Melaka","coords":{"lat":2.4382,"lon":102.3269}},{"name":"Nyalas","district":"Jasin","state":"Melaka","coords":{"lat":2.4338,"lon":102.4714}},{"name":"Alor Gajah","district":"Alor Gajah","state":"Melaka","coords":{"lat":2.3804,"lon":102.2089}},{"name":"Durian Tunggal","district":"Alor Gajah","state":"Melaka","coords":{"lat":2.3125,"lon":102.2805}},{"name":"Rembia","district":"Alor Gajah","state":"Melaka","coords":{"lat":2.328,"lon":102.2101}},{"name":"Kampung Ayer Keroh","district":"Melaka Tengah","state":"Melaka","coords":{"lat":2.2654,"lon":102.2801}},{"name":"Ayer Molek","district":"Melaka Tengah","state":"Melaka","coords":{"lat":2.2028,"lon":102.3172}},{"name":"Sungai Udang","district":"Melaka Tengah","state":"Melaka","coords":{"lat":2.269,"lon":102.1427}},{"name":"Malacca","district":"Melaka Tengah","state":"Melaka","coords":{"lat":2.196,"lon":102.2405}},{"name":"Teluk Mas","district":"Melaka Tengah","state":"Melaka","coords":{"lat":2.1654,"lon":102.322}},{"name":"Kampung Umbai","district":"Jasin","state":"Melaka","coords":{"lat":2.1586,"lon":102.3475}},{"name":"Merlimau","district":"Jasin","state":"Melaka","coords":{"lat":2.1449,"lon":102.4251}},{"name":"Teluk Panglima Garang","district":"Kuala Langat","state":"Selangor","coords":{"lat":2.90796,"lon":101.46877}},{"name":"Pelabuhan Klang","district":"Klang","state":"Selangor","coords":{"lat":2.99959,"lon":101.39287}},{"name":"Banting","district":"Kuala Langat","state":"Selangor","coords":{"lat":2.8136,"lon":101.50185}},{"name":"Morib","district":"Kuala Langat","state":"Selangor","coords":{"lat":2.7518,"lon":101.44433}},{"name":"Jenjarum","district":"Kuala Langat","state":"Selangor","coords":{"lat":2.8724,"lon":101.49484}},{"name":"Bangi","district":"Hulu Langat","state":"Selangor","coords":{"lat":2.9,"lon":101.78333}},{"name":"Semenyih","district":"Hulu Langat","state":"Selangor","coords":{"lat":2.9516,"lon":101.843}},{"name":"Kuala Klawang","district":"Jelebu","state":"Negeri Sembilan","coords":{"lat":2.9395,"lon":102.0704}},{"name":"Lenggeng","district":"Seremban","state":"Negeri Sembilan","coords":{"lat":2.8558,"lon":101.9424}},{"name":"Mantin","district":"Seremban","state":"Negeri Sembilan","coords":{"lat":2.8243,"lon":101.8949}},{"name":"Seremban","district":"Seremban","state":"Negeri Sembilan","coords":{"lat":2.7297,"lon":101.9381}},{"name":"Port Dickson","district":"Port Dickson","state":"Negeri Sembilan","coords":{"lat":2.52462,"lon":101.79651}},{"name":"Sepang","district":"Sepang","state":"Selangor","coords":{"lat":2.6931,"lon":101.7498}},{"name":"Taman Senawang Indah","district":"Seremban","state":"Negeri Sembilan","coords":{"lat":2.691,"lon":101.989}},{"name":"Simpang Pertang","district":"Jelebu","state":"Negeri Sembilan","coords":{"lat":2.9434,"lon":102.2589}},{"name":"Titi","district":"Jelebu","state":"Negeri Sembilan","coords":{"lat":2.9983,"lon":102.0765}},{"name":"Bahau","district":"Jempol","state":"Negeri Sembilan","coords":{"lat":2.8079,"lon":102.4049}},{"name":"Kuala Pilah","district":"Kuala Pilah","state":"Negeri Sembilan","coords":{"lat":2.7389,"lon":102.2487}},{"name":"Rembau","district":"Rembau","state":"Negeri Sembilan","coords":{"lat":2.5897,"lon":102.0913}},{"name":"Gemencheh","district":"Tampin","state":"Negeri Sembilan","coords":{"lat":2.5331,"lon":102.3989}},{"name":"Buloh Kasap","district":"Daerah Segamat","state":"Johor","coords":{"lat":2.5536,"lon":102.764}},{"name":"Batu Anam","district":"Daerah Segamat","state":"Johor","coords":{"lat":2.5825,"lon":102.711}},{"name":"Rompin","district":"Jempol","state":"Negeri Sembilan","coords":{"lat":2.7083,"lon":102.5047}},{"name":"Gemas","district":"Tampin","state":"Negeri Sembilan","coords":{"lat":2.5832,"lon":102.6117}},{"name":"Padang Endau","district":"Daerah Mersing","state":"Johor","coords":{"lat":2.65568,"lon":103.61504}},{"name":"Kuala Rompin","district":"Daerha Rompin","state":"Pahang","coords":{"lat":2.81667,"lon":103.48333}},{"name":"Kampung Tekek","state":"Pahang","coords":{"lat":2.8147,"lon":104.1592}},{"name":"Pekan","district":"Pekan","state":"Pahang","coords":{"lat":3.4836,"lon":103.3996}},{"name":"Bukit Ibam","district":"Daerha Rompin","state":"Pahang","coords":{"lat":3.1637,"lon":102.9777}},{"name":"Karak","district":"Bentong","state":"Pahang","coords":{"lat":3.4,"lon":102.03333}},{"name":"Mentakab","district":"Temerluh","state":"Pahang","coords":{"lat":3.4854,"lon":102.3484}},{"name":"Temerluh","district":"Temerluh","state":"Pahang","coords":{"lat":3.4506,"lon":102.4176}},{"name":"Kampung Teluk Air Tawar","district":"Seberang Perai Utara","state":"Penang","coords":{"lat":5.48333,"lon":100.38333}},{"name":"Batu Feringgi","district":"Daerah Timur Laut","state":"Penang","coords":{"lat":5.4709,"lon":100.24529}},{"name":"Butterworth","district":"Seberang Perai Utara","state":"Penang","coords":{"lat":5.3991,"lon":100.36382}},{"name":"Perai","district":"S.P. Tengah","state":"Penang","coords":{"lat":5.38333,"lon":100.38333}},{"name":"Bukit Mertajam","district":"S.P. Tengah","state":"Penang","coords":{"lat":5.36301,"lon":100.4667}},{"name":"Simpang Empat","district":"Seberang Perai Selatan","state":"Penang","coords":{"lat":5.2818,"lon":100.47768}},{"name":"Sungai Bakap","district":"Seberang Perai Selatan","state":"Penang","coords":{"lat":5.22231,"lon":100.49541}},{"name":"Nibong Tebal","district":"Seberang Perai Selatan","state":"Penang","coords":{"lat":5.16586,"lon":100.47793}},{"name":"Kampung Sungai Acheh","district":"Seberang Perai Selatan","state":"Penang","coords":{"lat":5.15172,"lon":100.42482}},{"name":"Parit Buntar","district":"Kerian","state":"Perak","coords":{"lat":5.12671,"lon":100.49316}},{"name":"Bagan Tiang","district":"Kerian","state":"Perak","coords":{"lat":5.11667,"lon":100.41667}},{"name":"Tanjung Piandang","district":"Kerian","state":"Perak","coords":{"lat":5.07236,"lon":100.38105}},{"name":"Kuala Kurau","district":"Kerian","state":"Perak","coords":{"lat":5.01821,"lon":100.42824}},{"name":"Tasek Glugor","district":"Seberang Perai Utara","state":"Penang","coords":{"lat":5.48032,"lon":100.49849}},{"name":"Kampung Pantai Aceh","district":"Barat Daya","state":"Penang","coords":{"lat":5.41569,"lon":100.19585}},{"name":"Balik Pulau","district":"Barat Daya","state":"Penang","coords":{"lat":5.34916,"lon":100.23938}},{"name":"Bayan Lepas","district":"Barat Daya","state":"Penang","coords":{"lat":5.29992,"lon":100.26052}},{"name":"George Town","district":"Daerah Timur Laut","state":"Penang","coords":{"lat":5.41123,"lon":100.33543}},{"name":"Kuala Geris","district":"Kuala Krai","state":"Kelantan","coords":{"lat":5.38333,"lon":102.06667}},{"name":"Dabong","district":"Kuala Krai","state":"Kelantan","coords":{"lat":5.37676,"lon":102.00968}},{"name":"Kampung Bukit Tinggi, Bentong","district":"Bentong","state":"Pahang","coords":{"lat":3.34944,"lon":101.82631}},{"name":"Rasa","district":"Hulu Selangor","state":"Selangor","coords":{"lat":3.4955,"lon":101.6294}},{"name":"Hulu Yam Lama","district":"Hulu Selangor","state":"Selangor","coords":{"lat":3.4537,"lon":101.6413}},{"name":"Serendah","district":"Hulu Selangor","state":"Selangor","coords":{"lat":3.3646,"lon":101.6041}},{"name":"Rawang","district":"Gombak","state":"Selangor","coords":{"lat":3.3213,"lon":101.5767}},{"name":"Sungai Buloh","district":"Petaling","state":"Selangor","coords":{"lat":3.21,"lon":101.561}},{"name":"Batu Tiga","district":"Petaling","state":"Selangor","coords":{"lat":3.078,"lon":101.547}},{"name":"Petaling Jaya","district":"Petaling","state":"Selangor","coords":{"lat":3.10726,"lon":101.60671}},{"name":"Kuala Lumpur","district":"WP. Kuala Lumpur","state":"Kuala Lumpur","coords":{"lat":3.1412,"lon":101.68653}},{"name":"Setapak","state":"Selangor","coords":{"lat":3.207,"lon":101.727}},{"name":"Batu Caves","district":"Gombak","state":"Selangor","coords":{"lat":3.238,"lon":101.682}},{"name":"Ampang","state":"Kuala Lumpur","coords":{"lat":3.15,"lon":101.76667}},{"name":"Hulu Langat","district":"Hulu Langat","state":"Selangor","coords":{"lat":3.1137,"lon":101.8142}},{"name":"Bagan Datuk","district":"Hilir Perak","state":"Perak","coords":{"lat":3.9899,"lon":100.7819}},{"name":"Hutan Melintang","district":"Hilir Perak","state":"Perak","coords":{"lat":3.8766,"lon":100.9328}},{"name":"Sabak Bernam","district":"Sabak Bernam","state":"Selangor","coords":{"lat":3.7698,"lon":100.9879}},{"name":"Sungai Besar","district":"Sabak Bernam","state":"Selangor","coords":{"lat":3.6746,"lon":100.9867}},{"name":"Sungai Lembing","district":"Kuantan","state":"Pahang","coords":{"lat":3.9178,"lon":103.0361}},{"name":"Kuantan","district":"Kuantan","state":"Pahang","coords":{"lat":3.8077,"lon":103.326}},{"name":"Gambang","district":"Kuantan","state":"Pahang","coords":{"lat":3.7068,"lon":103.1002}},{"name":"Mambang Di Awan","district":"Daerah Kinta","state":"Perak","coords":{"lat":4.26667,"lon":101.15}},{"name":"Tanah Rata","district":"Cameron Highlands","state":"Pahang","coords":{"lat":4.46361,"lon":101.3763}},{"name":"Ringlet","district":"Cameron Highlands","state":"Pahang","coords":{"lat":4.4155,"lon":101.3836}},{"name":"Sungai Siput","district":"Daerah Kinta","state":"Perak","coords":{"lat":4.3945,"lon":101.1947}},{"name":"Gopeng","district":"Daerah Kinta","state":"Perak","coords":{"lat":4.4715,"lon":101.1663}},{"name":"Batu Gajah","district":"Daerah Kinta","state":"Perak","coords":{"lat":4.46916,"lon":101.04107}},{"name":"Malim Nawar","district":"Daerah Kinta","state":"Perak","coords":{"lat":4.3506,"lon":101.1188}},{"name":"Kampar","district":"Daerah Kinta","state":"Perak","coords":{"lat":4.3,"lon":101.15}},{"name":"Cenderiang","district":"Batang Padang","state":"Perak","coords":{"lat":4.26667,"lon":101.23333}},{"name":"Tapah Road","district":"Batang Padang","state":"Perak","coords":{"lat":4.16667,"lon":101.2}},{"name":"Bidur","district":"Batang Padang","state":"Perak","coords":{"lat":4.11667,"lon":101.28333}},{"name":"Mukah","district":"Mukah","state":"Sarawak","coords":{"lat":2.89435,"lon":112.09145}},{"name":"Tatau","district":"Tatau","state":"Sarawak","coords":{"lat":2.88333,"lon":112.85}},{"name":"Balingian","district":"Mukah","state":"Sarawak","coords":{"lat":2.93057,"lon":112.54135}},{"name":"Kampung Gula","district":"Kerian","state":"Perak","coords":{"lat":4.93333,"lon":100.46667}},{"name":"Parit","district":"Perak Tengah","state":"Perak","coords":{"lat":4.48333,"lon":100.91667}},{"name":"Pusing","district":"Daerah Kinta","state":"Perak","coords":{"lat":4.4941,"lon":101.0079}},{"name":"Kampung Lambor Kanan","district":"Perak Tengah","state":"Perak","coords":{"lat":4.2664,"lon":100.9044}},{"name":"Pangkor","district":"Manjung (Dinding)","state":"Perak","coords":{"lat":4.2134,"lon":100.5747}},{"name":"Lumut","district":"Manjung (Dinding)","state":"Perak","coords":{"lat":4.2323,"lon":100.6298}},{"name":"Sitiawan","district":"Manjung (Dinding)","state":"Perak","coords":{"lat":4.2168,"lon":100.6996}},{"name":"Teluk Intan","district":"Hilir Perak","state":"Perak","coords":{"lat":4.02219,"lon":101.02083}},{"name":"Kampung Kuala Muda","district":"Seberang Perai Utara","state":"Penang","coords":{"lat":5.5744,"lon":100.33984}},{"name":"Taman Kota Sarang Semut","district":"Pendang","state":"Kedah","coords":{"lat":5.97907,"lon":100.39993}},{"name":"Kampung Kobah","district":"Pendang","state":"Kedah","coords":{"lat":5.96667,"lon":100.43333}},{"name":"Gurun","district":"Kuala Muda","state":"Kedah","coords":{"lat":5.81717,"lon":100.47381}},{"name":"Yan Besar","district":"Yan","state":"Kedah","coords":{"lat":5.7989,"lon":100.37264}},{"name":"Sungai Petani","district":"Kuala Muda","state":"Kedah","coords":{"lat":5.647,"lon":100.48772}},{"name":"Kepala Batas","district":"Seberang Perai Utara","state":"Penang","coords":{"lat":5.51707,"lon":100.4265}},{"name":"Keruh","district":"Ulu Perak","state":"Perak","coords":{"lat":5.71667,"lon":101}},{"name":"Melor","district":"Kota Bharu","state":"Kelantan","coords":{"lat":5.96561,"lon":102.29422}},{"name":"Ketereh","district":"Kota Bharu","state":"Kelantan","coords":{"lat":5.95701,"lon":102.24817}},{"name":"Pulai Chondong","district":"Machang","state":"Kelantan","coords":{"lat":5.87133,"lon":102.23177}},{"name":"Pasir Puteh","district":"Pasir Puteh","state":"Kelantan","coords":{"lat":5.83333,"lon":102.4}},{"name":"Cherang Ruku","state":"Kelantan","coords":{"lat":5.87062,"lon":102.49479}},{"name":"Tanah Merah","district":"Tanah Merah","state":"Kelantan","coords":{"lat":5.8,"lon":102.15}},{"name":"Kuala Krai","district":"Kuala Krai","state":"Kelantan","coords":{"lat":5.5313,"lon":102.19925}},{"name":"Kuching","district":"Bahagian Kuching","state":"Sarawak","coords":{"lat":1.55,"lon":110.33333}},{"name":"Simunjan","district":"Simunjan","state":"Sarawak","coords":{"lat":1.38333,"lon":110.75}},{"name":"Pantu","district":"Bahagian Sri Aman","state":"Sarawak","coords":{"lat":1.13968,"lon":111.11771}},{"name":"Lingga","district":"Bahagian Sri Aman","state":"Sarawak","coords":{"lat":1.35,"lon":111.16667}},{"name":"Sri Aman","district":"Bahagian Sri Aman","state":"Sarawak","coords":{"lat":1.24722,"lon":111.45278}},{"name":"Belawai","district":"Daro","state":"Sarawak","coords":{"lat":2.23333,"lon":111.21667}},{"name":"Sarikei","district":"Bahagian Sarikei","state":"Sarawak","coords":{"lat":2.11667,"lon":111.51667}},{"name":"Maradong","district":"Meradong","state":"Sarawak","coords":{"lat":2.08333,"lon":111.61667}},{"name":"Binatang","district":"Meradong","state":"Sarawak","coords":{"lat":2.16667,"lon":111.63333}},{"name":"Julau","district":"Julau","state":"Sarawak","coords":{"lat":2.01667,"lon":111.91667}},{"name":"Sibu","district":"Bahagian Sibu","state":"Sarawak","coords":{"lat":2.3,"lon":111.81667}},{"name":"Pakan","district":"Pakan","state":"Sarawak","coords":{"lat":1.88333,"lon":111.68333}},{"name":"Kampung Oran","district":"Perlis","state":"Perlis","coords":{"lat":6.46529,"lon":100.24558}},{"name":"Kampung Titi Tinggi","district":"Perlis","state":"Perlis","coords":{"lat":6.63726,"lon":100.26271}},{"name":"Kampung Chuping","district":"Perlis","state":"Perlis","coords":{"lat":6.5013,"lon":100.25576}},{"name":"Alor Janggus","district":"Daerah Kota Setar","state":"Kedah","coords":{"lat":6.17386,"lon":100.31156}},{"name":"Kampung Asun","district":"Kubang Pasu","state":"Kedah","coords":{"lat":6.33333,"lon":100.33333}},{"name":"Kangar","district":"Perlis","state":"Perlis","coords":{"lat":6.4414,"lon":100.19862}},{"name":"Bukit Kayu Hitam","district":"Kubang Pasu","state":"Kedah","coords":{"lat":6.51668,"lon":100.41893}},{"name":"Changloon","district":"Kubang Pasu","state":"Kedah","coords":{"lat":6.43422,"lon":100.43133}},{"name":"Kodiang","district":"Kubang Pasu","state":"Kedah","coords":{"lat":6.39638,"lon":100.30755}},{"name":"Kuala Perlis","district":"Perlis","state":"Perlis","coords":{"lat":6.4,"lon":100.13333}},{"name":"Padang Sira","district":"Kubang Pasu","state":"Kedah","coords":{"lat":6.36211,"lon":100.33954}},{"name":"Kuala Sanglang","state":"Kedah","coords":{"lat":6.26116,"lon":100.19644}},{"name":"Jitra","district":"Kubang Pasu","state":"Kedah","coords":{"lat":6.26812,"lon":100.42167}},{"name":"Kepala Batas","district":"Daerah Kota Setar","state":"Kedah","coords":{"lat":6.20411,"lon":100.40754}},{"name":"Kuala Kedah","district":"Daerah Kota Setar","state":"Kedah","coords":{"lat":6.1,"lon":100.3}},{"name":"Langgar","district":"Pokok Sena","state":"Kedah","coords":{"lat":6.14762,"lon":100.43238}},{"name":"Alor Setar","district":"Daerah Kota Setar","state":"Kedah","coords":{"lat":6.12104,"lon":100.36014}},{"name":"Tokai","district":"Pendang","state":"Kedah","coords":{"lat":6.02867,"lon":100.40691}},{"name":"Kangkong","district":"Daerah Kota Setar","state":"Kedah","coords":{"lat":6.0005,"lon":100.34463}},{"name":"Sintok","district":"Kubang Pasu","state":"Kedah","coords":{"lat":6.44233,"lon":100.5235}},{"name":"Kuala Nerang","district":"Padang Terap","state":"Kedah","coords":{"lat":6.25844,"lon":100.61264}},{"name":"Pokok Sena","district":"Pokok Sena","state":"Kedah","coords":{"lat":6.17055,"lon":100.51885}},{"name":"Tumpat","district":"Tumpat","state":"Kelantan","coords":{"lat":6.19775,"lon":102.17098}},{"name":"Pengkalan Chepa","district":"Kota Bharu","state":"Kelantan","coords":{"lat":6.17471,"lon":102.28802}},{"name":"Wakaf Baharu","district":"Tumpat","state":"Kelantan","coords":{"lat":6.11667,"lon":102.2}},{"name":"Rantau Panjang","district":"Pasir Mas","state":"Kelantan","coords":{"lat":6.0219,"lon":101.9767}},{"name":"Pasir Mas","district":"Pasir Mas","state":"Kelantan","coords":{"lat":6.04934,"lon":102.13987}},{"name":"Kota Bharu","district":"Kota Bharu","state":"Kelantan","coords":{"lat":6.12361,"lon":102.24333}},{"name":"Kuala Besut","district":"Besut","state":"Terengganu","coords":{"lat":5.83303,"lon":102.55514}},{"name":"Jertih","district":"Besut","state":"Terengganu","coords":{"lat":5.7336,"lon":102.4897}},{"name":"Kudat","state":"Sabah","coords":{"lat":6.88732,"lon":116.82364}},{"name":"Bandau","district":"Kota Marudu","state":"Sabah","coords":{"lat":6.5205,"lon":116.7534}},{"name":"Kampung Kundassang","district":"Ranau","state":"Sabah","coords":{"lat":5.9824,"lon":116.5712}},{"name":"Kota Belud","district":"Kota Belud","state":"Sabah","coords":{"lat":6.351,"lon":116.4305}},{"name":"Spaoh","district":"Betong","state":"Sarawak","coords":{"lat":1.5,"lon":111.5}},{"name":"Roban","district":"Saratok","state":"Sarawak","coords":{"lat":1.91667,"lon":111.33333}},{"name":"Pusa","district":"Betong","state":"Sarawak","coords":{"lat":1.58333,"lon":111.25}},{"name":"Debak","district":"Betong","state":"Sarawak","coords":{"lat":1.56667,"lon":111.41667}},{"name":"Budu","district":"Pakan","state":"Sarawak","coords":{"lat":1.76667,"lon":111.5}},{"name":"Maludam","district":"Betong","state":"Sarawak","coords":{"lat":1.65,"lon":111.03333}},{"name":"Saratok","district":"Saratok","state":"Sarawak","coords":{"lat":1.73333,"lon":111.33333}},{"name":"Kampung Kuala Matu","state":"Sarawak","coords":{"lat":2.71667,"lon":111.46667}},{"name":"Daro","district":"Daro","state":"Sarawak","coords":{"lat":2.51667,"lon":111.43333}},{"name":"Oya","district":"Dalat","state":"Sarawak","coords":{"lat":2.86667,"lon":111.88333}},{"name":"Igan","district":"Matu","state":"Sarawak","coords":{"lat":2.82281,"lon":111.70794}},{"name":"Matu","district":"Matu","state":"Sarawak","coords":{"lat":2.68333,"lon":111.53333}},{"name":"Lubok Antu","district":"Lubok Antu","state":"Sarawak","coords":{"lat":1.04186,"lon":111.83398}},{"name":"Engkilili","district":"Bahagian Sri Aman","state":"Sarawak","coords":{"lat":1.13864,"lon":111.66665}},{"name":"Betong","district":"Betong","state":"Sarawak","coords":{"lat":1.4,"lon":111.51667}},{"name":"Dalat","district":"Dalat","state":"Sarawak","coords":{"lat":2.66667,"lon":112.08333}},{"name":"Kanowit","district":"Kanowit","state":"Sarawak","coords":{"lat":2.1,"lon":112.15}},{"name":"Lundu","district":"Lundu","state":"Sarawak","coords":{"lat":1.67439,"lon":109.85171}},{"name":"Sematan","district":"Lundu","state":"Sarawak","coords":{"lat":1.8,"lon":109.76667}},{"name":"Song","district":"Song","state":"Sarawak","coords":{"lat":2.01667,"lon":112.55}},{"name":"Kapit","district":"Bahagian Kapit","state":"Sarawak","coords":{"lat":1.99546,"lon":112.93254}},{"name":"Niah","district":"Bahagian Miri","state":"Sarawak","coords":{"lat":3.86203,"lon":113.71521}},{"name":"Belaga","district":"Belaga","state":"Sarawak","coords":{"lat":2.7,"lon":113.78333}},{"name":"Bintulu","district":"Bahagian Bintulu","state":"Sarawak","coords":{"lat":3.16667,"lon":113.03333}},{"name":"Sebauh","district":"Bahagian Bintulu","state":"Sarawak","coords":{"lat":3.11667,"lon":113.26667}},{"name":"Trusan","district":"Lawas","state":"Sarawak","coords":{"lat":4.7849,"lon":115.2728}},{"name":"Lawas","district":"Lawas","state":"Sarawak","coords":{"lat":4.8604,"lon":115.409}},{"name":"Sundar","district":"Lawas","state":"Sarawak","coords":{"lat":4.9,"lon":115.2}},{"name":"Nanga Medamit","district":"Bahagian Limbang","state":"Sarawak","coords":{"lat":4.46667,"lon":114.91667}},{"name":"Limbang","district":"Bahagian Limbang","state":"Sarawak","coords":{"lat":4.75477,"lon":115.01011}},{"name":"Long Bedian","district":"Marudi","state":"Sarawak","coords":{"lat":3.8,"lon":114.73333}},{"name":"Marudi","district":"Marudi","state":"Sarawak","coords":{"lat":4.18333,"lon":114.31667}},{"name":"Beluru","district":"Marudi","state":"Sarawak","coords":{"lat":3.98333,"lon":114.1}},{"name":"Long Lama","district":"Marudi","state":"Sarawak","coords":{"lat":3.76667,"lon":114.4}},{"name":"Bekenu","district":"Bahagian Miri","state":"Sarawak","coords":{"lat":4.05392,"lon":113.84407}},{"name":"Miri","district":"Bahagian Miri","state":"Sarawak","coords":{"lat":4.39928,"lon":113.99163}},{"name":"Kuala Baram","district":"Bahagian Miri","state":"Sarawak","coords":{"lat":4.5855,"lon":113.98974}},{"name":"Ulu Tiram","district":"Daerah Johor Baharu","state":"Johor","coords":{"lat":1.6,"lon":103.81667}},{"name":"Ulu Kinta","state":"Perak","coords":{"lat":4.66667,"lon":101.21667}},{"name":"Ulu Kelang","district":"Gombak","state":"Selangor","coords":{"lat":3.18,"lon":101.773}},{"name":"Teluk Bahang","district":"Barat Daya","state":"Penang","coords":{"lat":5.45834,"lon":100.21541}},{"name":"Telaga Batu","state":"Penang","coords":{"lat":5.46667,"lon":100.23333}},{"name":"Tanjung Tokong","district":"Daerah Timur Laut","state":"Penang","coords":{"lat":5.46061,"lon":100.30742}},{"name":"Tanjung Sepat","district":"Kuala Langat","state":"Selangor","coords":{"lat":2.6579,"lon":101.5629}},{"name":"Sungai Pelek New Village","district":"Sepang","state":"Selangor","coords":{"lat":2.65,"lon":101.7}},{"name":"Sungai Lalang","district":"Kuala Muda","state":"Kedah","coords":{"lat":5.6998,"lon":100.51449}},{"name":"Sungai Kob","district":"Kulim","state":"Kedah","coords":{"lat":5.42998,"lon":100.64484}},{"name":"Sungai Durian","district":"Daerah Kinta","state":"Perak","coords":{"lat":4.31667,"lon":101.05}},{"name":"Sungai Dua","district":"Seberang Perai Utara","state":"Penang","coords":{"lat":5.44266,"lon":100.42972}},{"name":"Sungai Sumun","district":"Hilir Perak","state":"Perak","coords":{"lat":3.8915,"lon":100.8532}},{"name":"Simpang","district":"Larut Matang & Selama","state":"Perak","coords":{"lat":4.81667,"lon":100.7}},{"name":"Seri Kembangan","district":"Petaling","state":"Selangor","coords":{"lat":3.03333,"lon":101.71667}},{"name":"Serian","district":"Serian","state":"Sarawak","coords":{"lat":1.16667,"lon":110.56667}},{"name":"Serdang","state":"Perak","coords":{"lat":5.20372,"lon":100.62476}},{"name":"Seputeh","district":"WP. Kuala Lumpur","state":"Kuala Lumpur","coords":{"lat":3.11667,"lon":101.68333}},{"name":"Sentul","district":"WP. Kuala Lumpur","state":"Kuala Lumpur","coords":{"lat":3.18333,"lon":101.68333}},{"name":"Mulu","district":"Saratok","state":"Sarawak","coords":{"lat":1.68333,"lon":111.38333}},{"name":"Relau","district":"Daerah Timur Laut","state":"Penang","coords":{"lat":5.33096,"lon":100.28296}},{"name":"Pulau Sebang","district":"Alor Gajah","state":"Melaka","coords":{"lat":2.455,"lon":102.2329}},{"name":"Pudu","district":"WP. Kuala Lumpur","state":"Kuala Lumpur","coords":{"lat":3.13333,"lon":101.71667}},{"name":"Puchong","district":"Petaling","state":"Selangor","coords":{"lat":3,"lon":101.61667}},{"name":"Permatang Pasir","district":"S.P. Tengah","state":"Penang","coords":{"lat":5.41628,"lon":100.43864}},{"name":"Permatang Kuching","district":"Seberang Perai Utara","state":"Penang","coords":{"lat":5.46339,"lon":100.38144}},{"name":"Peringat","district":"Kota Bharu","state":"Kelantan","coords":{"lat":6.03333,"lon":102.28333}},{"name":"Ladang Seri Kundang","district":"Gombak","state":"Selangor","coords":{"lat":3.2856,"lon":101.519}},{"name":"Pantai Remis","district":"Manjung (Dinding)","state":"Perak","coords":{"lat":4.4557,"lon":100.6288}},{"name":"Padang Besar","district":"Kubang Pasu","state":"Kedah","coords":{"lat":6.38333,"lon":100.3}},{"name":"Kampung On Lok","district":"Jasin","state":"Melaka","coords":{"lat":2.4723,"lon":102.3829}},{"name":"Nanga Merit","district":"Bahagian Kapit","state":"Sarawak","coords":{"lat":2.28333,"lon":113.13333}},{"name":"Lukut","district":"Port Dickson","state":"Negeri Sembilan","coords":{"lat":2.5703,"lon":101.833}},{"name":"Lubok Buntar","district":"Bandar Baharu","state":"Kedah","coords":{"lat":5.14216,"lon":100.58971}},{"name":"Kubang Semang","district":"S.P. Tengah","state":"Penang","coords":{"lat":5.40375,"lon":100.45745}},{"name":"Kuang","district":"Gombak","state":"Selangor","coords":{"lat":3.2594,"lon":101.5541}},{"name":"Kuala Sungai Baru","district":"Alor Gajah","state":"Melaka","coords":{"lat":2.3594,"lon":102.0353}},{"name":"Kuala Pegang","district":"Baling","state":"Kedah","coords":{"lat":5.63623,"lon":100.80913}},{"name":"Kuala Ketil","district":"Baling","state":"Kedah","coords":{"lat":5.6,"lon":100.65}},{"name":"Kepong","district":"WP. Kuala Lumpur","state":"Kuala Lumpur","coords":{"lat":3.21398,"lon":101.64018}},{"name":"Klebang Besar","district":"Melaka Tengah","state":"Melaka","coords":{"lat":2.2186,"lon":102.1995}},{"name":"Kelapa Sawit","district":"Kulaijaya","state":"Johor","coords":{"lat":1.6698,"lon":103.5327}},{"name":"Kampung Kangkar Teberau","district":"Daerah Johor Baharu","state":"Johor","coords":{"lat":1.532,"lon":103.7549}},{"name":"Kampong Wang Tepus","district":"Kubang Pasu","state":"Kedah","coords":{"lat":6.25,"lon":100.48333}},{"name":"Kampung Ulu Tris","district":"Sepang","state":"Selangor","coords":{"lat":2.6677,"lon":101.6684}},{"name":"Kampong Tok Bali","state":"Kelantan","coords":{"lat":5.89174,"lon":102.48356}},{"name":"Titi Gajah","district":"Daerah Kota Setar","state":"Kedah","coords":{"lat":6.20189,"lon":100.39326}},{"name":"Kampung Telaga Papan","district":"Besut","state":"Terengganu","coords":{"lat":5.76319,"lon":102.63893}},{"name":"Telaga Mas","district":"Pokok Sena","state":"Kedah","coords":{"lat":6.16667,"lon":100.46667}},{"name":"Tebengau","district":"Daerah Kota Setar","state":"Kedah","coords":{"lat":6.04603,"lon":100.33137}},{"name":"Kampung Tawar Besar","district":"Baling","state":"Kedah","coords":{"lat":5.55658,"lon":100.81204}},{"name":"Kampung Tanjung Minyak","district":"Melaka Tengah","state":"Melaka","coords":{"lat":2.2666,"lon":102.2004}},{"name":"Kampung Tanjung Keling","district":"Melaka Tengah","state":"Melaka","coords":{"lat":2.2267,"lon":102.1716}},{"name":"Kampung Tanjung Karang","district":"Kuala Selangor","state":"Selangor","coords":{"lat":3.4242,"lon":101.1849}},{"name":"Kampong Tanjong Chat","district":"Kota Bharu","state":"Kelantan","coords":{"lat":6.15,"lon":102.25}},{"name":"Kampong Tajar","district":"Pokok Sena","state":"Kedah","coords":{"lat":6.1,"lon":100.41667}},{"name":"Kampung Sungai Udang Besar","district":"Seberang Perai Selatan","state":"Penang","coords":{"lat":5.16129,"lon":100.42677}},{"name":"Kampung Sungai Terap","district":"Kulim","state":"Kedah","coords":{"lat":5.29352,"lon":100.6283}},{"name":"Kampong Sungai Rusa","district":"Barat Daya","state":"Penang","coords":{"lat":5.38333,"lon":100.21667}},{"name":"Kampung Sungai Penchala","district":"WP. Kuala Lumpur","state":"Kuala Lumpur","coords":{"lat":3.16236,"lon":101.62696}},{"name":"Kampong Sungai Kechil Ulu","district":"Bandar Baharu","state":"Kedah","coords":{"lat":5.10962,"lon":100.5438}},{"name":"Kampung Sungai Kajang","district":"Kuala Selangor","state":"Selangor","coords":{"lat":3.4161,"lon":101.173}},{"name":"Kampung Sungai Glugur","district":"Daerah Timur Laut","state":"Penang","coords":{"lat":5.36966,"lon":100.31353}},{"name":"Kampong Sungai Batu","district":"Bandar Baharu","state":"Kedah","coords":{"lat":5.31764,"lon":100.70043}},{"name":"Sungai Baharu","district":"Daerah Kota Setar","state":"Kedah","coords":{"lat":6.16399,"lon":100.33392}},{"name":"Kampung Sungai Ara","district":"Barat Daya","state":"Penang","coords":{"lat":5.32699,"lon":100.27348}},{"name":"Kampung Sirusa","district":"Port Dickson","state":"Negeri Sembilan","coords":{"lat":2.4957,"lon":101.8415}},{"name":"Kampung Siong","district":"Baling","state":"Kedah","coords":{"lat":5.78863,"lon":100.90862}},{"name":"Kampung Simpang Renggam","district":"Daerah Keluang","state":"Johor","coords":{"lat":1.8278,"lon":103.3}},{"name":"Kampung Simpang Pulai","district":"Ulu Perak","state":"Perak","coords":{"lat":5.71057,"lon":100.99651}},{"name":"Kampong Sijangkang","district":"Kuala Langat","state":"Selangor","coords":{"lat":2.94048,"lon":101.46367}},{"name":"Kampong Sidam","district":"Kulim","state":"Kedah","coords":{"lat":5.53333,"lon":100.56667}},{"name":"Kampung Selang","district":"Daerah Muar","state":"Johor","coords":{"lat":2.35,"lon":102.876}},{"name":"Sala Kechik","district":"Daerah Kota Setar","state":"Kedah","coords":{"lat":5.98425,"lon":100.34923}},{"name":"Kampung Relau","district":"Bandar Baharu","state":"Kedah","coords":{"lat":5.23126,"lon":100.55593}},{"name":"Kampung Ramuan China Kechil","district":"Alor Gajah","state":"Melaka","coords":{"lat":2.4301,"lon":102.075}},{"name":"Kampung Pulai","district":"Baling","state":"Kedah","coords":{"lat":5.65838,"lon":100.89172}},{"name":"Kampung Pondok Upih","district":"Barat Daya","state":"Penang","coords":{"lat":5.33733,"lon":100.23247}},{"name":"Lepai","district":"Daerah Kota Setar","state":"Kedah","coords":{"lat":6.08333,"lon":100.36667}},{"name":"Kampung Permatang Pasir","district":"Barat Daya","state":"Penang","coords":{"lat":5.37237,"lon":100.21089}},{"name":"Kampung Pering","district":"Kubang Pasu","state":"Kedah","coords":{"lat":6.37598,"lon":100.33644}},{"name":"Pengkalan Kundor","district":"Daerah Kota Setar","state":"Kedah","coords":{"lat":6.07794,"lon":100.36038}},{"name":"Kampung Pengkalan Gelong","district":"Daerah Kota Setar","state":"Kedah","coords":{"lat":6.19346,"lon":100.38304}},{"name":"Pendang","district":"Pendang","state":"Kedah","coords":{"lat":5.99516,"lon":100.47885}},{"name":"Kampung Parit Panjang","district":"Baling","state":"Kedah","coords":{"lat":5.70566,"lon":100.74618}},{"name":"Kampong Pangkal Kalong","district":"Kota Bharu","state":"Kelantan","coords":{"lat":5.91667,"lon":102.21667}},{"name":"Kampung Padang Lalang","district":"Daerah Kota Setar","state":"Kedah","coords":{"lat":6.16368,"lon":100.3099}},{"name":"Padang Hang","district":"Daerah Kota Setar","state":"Kedah","coords":{"lat":6.20635,"lon":100.30177}},{"name":"Kampung Padang Cina","district":"Kulim","state":"Kedah","coords":{"lat":5.43809,"lon":100.57905}},{"name":"Kampung Naga Lilit","district":"Kulim","state":"Kedah","coords":{"lat":5.47646,"lon":100.55087}},{"name":"Kampung Minyak Beku","district":"Daerah Batu Pahat","state":"Johor","coords":{"lat":1.7954,"lon":102.8971}},{"name":"Kampong Merbok","district":"Kuala Muda","state":"Kedah","coords":{"lat":5.71667,"lon":100.41667}},{"name":"Kampong Menumbok","district":"Kuala Penyu","state":"Sabah","coords":{"lat":5.30316,"lon":115.36997}},{"name":"Kampong Masjid Tanah","district":"Alor Gajah","state":"Melaka","coords":{"lat":2.35,"lon":102.11667}},{"name":"Kampung Machap Baru","district":"Alor Gajah","state":"Melaka","coords":{"lat":2.3829,"lon":102.3311}},{"name":"Kampung Lubok Merbau","district":"Padang Terap","state":"Kedah","coords":{"lat":6.01961,"lon":100.72932}},{"name":"Limbong","district":"Daerah Kota Setar","state":"Kedah","coords":{"lat":6.13333,"lon":100.41667}},{"name":"Lenggong","district":"Ulu Perak","state":"Perak","coords":{"lat":5.10633,"lon":100.96792}},{"name":"Kampung Lalang","district":"Baling","state":"Kedah","coords":{"lat":5.79179,"lon":100.89719}},{"name":"Kampung Labohan Dagang","district":"Kuala Langat","state":"Selangor","coords":{"lat":2.80209,"lon":101.61963}},{"name":"Kampung Kuala Selama","district":"Bandar Baharu","state":"Kedah","coords":{"lat":5.23816,"lon":100.68297}},{"name":"Kobang","state":"Sabah","coords":{"lat":4.44188,"lon":118.69287}},{"name":"Kampung Kerubong","district":"Melaka Tengah","state":"Melaka","coords":{"lat":2.2958,"lon":102.2537}},{"name":"Kampong Datuk Keramat","district":"WP. Kuala Lumpur","state":"Kuala Lumpur","coords":{"lat":3.16667,"lon":101.73333}},{"name":"Kampong Kadok","district":"Kota Bharu","state":"Kelantan","coords":{"lat":6,"lon":102.25}},{"name":"Kampung Jerlun","district":"Kubang Pasu","state":"Kedah","coords":{"lat":6.21392,"lon":100.26581}},{"name":"Ijok","district":"Kuala Selangor","state":"Selangor","coords":{"lat":3.31667,"lon":101.4}},{"name":"Kampong Gunong","district":"Jeli","state":"Kelantan","coords":{"lat":5.71667,"lon":101.75}},{"name":"Kampong Dungun","state":"Perak","coords":{"lat":3.21667,"lon":101.31667}},{"name":"Derga","district":"Daerah Kota Setar","state":"Kedah","coords":{"lat":6.12092,"lon":100.3893}},{"name":"Kampung Chui Chak","district":"Hilir Perak","state":"Perak","coords":{"lat":4.0453,"lon":101.1715}},{"name":"Kampong Cherang Hangus","district":"Bachok","state":"Kelantan","coords":{"lat":6.03333,"lon":102.35}},{"name":"Kampung Cheng","district":"Melaka Tengah","state":"Melaka","coords":{"lat":2.2635,"lon":102.2179}},{"name":"Kampong Chenderong Balai","district":"Hilir Perak","state":"Perak","coords":{"lat":4.13333,"lon":101.08333}},{"name":"Kampong Chap","district":"Bachok","state":"Kelantan","coords":{"lat":6.05,"lon":102.35}},{"name":"Kampung Cangkat Keruing","district":"Manjung (Dinding)","state":"Perak","coords":{"lat":4.3775,"lon":100.6891}},{"name":"Bukit Pinang","district":"Yan","state":"Kedah","coords":{"lat":5.93333,"lon":100.45}},{"name":"Kampung Bukit Jering","district":"Jeli","state":"Kelantan","coords":{"lat":5.47746,"lon":101.90779}},{"name":"Kampung Bukit Bunga","district":"Tanah Merah","state":"Kelantan","coords":{"lat":5.83369,"lon":101.90033}},{"name":"Kampung Bukit Beruang","district":"Melaka Tengah","state":"Melaka","coords":{"lat":2.2414,"lon":102.2792}},{"name":"Kampung Bukit Baharu","district":"Melaka Tengah","state":"Melaka","coords":{"lat":2.2152,"lon":102.2851}},{"name":"Kampung Batu Feringgi","district":"Daerah Timur Laut","state":"Penang","coords":{"lat":5.46948,"lon":100.24449}},{"name":"Kampung Batang Melaka Ulu","district":"Jasin","state":"Melaka","coords":{"lat":2.4591,"lon":102.4139}},{"name":"Kampung Baru Subang","district":"Petaling","state":"Selangor","coords":{"lat":3.15,"lon":101.53333}},{"name":"Kampong Bakai","district":"Baling","state":"Kedah","coords":{"lat":5.53333,"lon":100.73333}},{"name":"Kampung Baharu Paroi","district":"Seremban","state":"Negeri Sembilan","coords":{"lat":2.7241,"lon":102.0007}},{"name":"Kampung Baharu Nilai","district":"Seremban","state":"Negeri Sembilan","coords":{"lat":2.8033,"lon":101.7972}},{"name":"Kampong Baharu Cheras Batu Sebelas","district":"Hulu Langat","state":"Selangor","coords":{"lat":3.05,"lon":101.76667}},{"name":"Kampung Baru Balakong","district":"Hulu Langat","state":"Selangor","coords":{"lat":3.02938,"lon":101.74714}},{"name":"Kampung Bagan","district":"Daerah Batu Pahat","state":"Johor","coords":{"lat":1.8481,"lon":102.8588}},{"name":"Kampung Ayer Puteh","district":"Bandar Baharu","state":"Kedah","coords":{"lat":5.18223,"lon":100.60191}},{"name":"Kampung Ayer Molek","district":"Melaka Tengah","state":"Melaka","coords":{"lat":2.2139,"lon":102.3278}},{"name":"Anak Bukit","district":"Daerah Kota Setar","state":"Kedah","coords":{"lat":6.184,"lon":100.37752}},{"name":"Alor Merah","district":"Daerah Kota Setar","state":"Kedah","coords":{"lat":6.16667,"lon":100.38333}},{"name":"Juru","district":"S.P. Tengah","state":"Penang","coords":{"lat":5.31201,"lon":100.44229}},{"name":"Jinjang","district":"WP. Kuala Lumpur","state":"Kuala Lumpur","coords":{"lat":3.20881,"lon":101.65623}},{"name":"Jelutong","district":"Daerah Timur Laut","state":"Penang","coords":{"lat":5.38998,"lon":100.31885}},{"name":"Jawi","district":"Seberang Perai Selatan","state":"Penang","coords":{"lat":5.21525,"lon":100.49211}},{"name":"Inanam","district":"Kota Kinabalu","state":"Sabah","coords":{"lat":5.9922,"lon":116.1321}},{"name":"Guar Chempedak","district":"Yan","state":"Kedah","coords":{"lat":5.85846,"lon":100.45928}},{"name":"Glenmarie Estate","district":"Petaling","state":"Selangor","coords":{"lat":3.08333,"lon":101.58333}},{"name":"Empaong","district":"Betong","state":"Sarawak","coords":{"lat":1.41667,"lon":111.53333}},{"name":"Cheras","state":"Selangor","coords":{"lat":3.108,"lon":101.726}},{"name":"Chenderong","district":"Daerah Kinta","state":"Perak","coords":{"lat":4.4091,"lon":101.0495}},{"name":"Bukit Tengah","district":"S.P. Tengah","state":"Penang","coords":{"lat":5.34605,"lon":100.43917}},{"name":"Bukit Tambun","district":"Seberang Perai Selatan","state":"Penang","coords":{"lat":5.27179,"lon":100.4601}},{"name":"Bukit Rambai","district":"Melaka Tengah","state":"Melaka","coords":{"lat":2.2594,"lon":102.1838}},{"name":"Bukit Gambir","district":"Ledang","state":"Johor","coords":{"lat":2.211,"lon":102.6546}},{"name":"Machap","district":"Alor Gajah","state":"Melaka","coords":{"lat":2.3862,"lon":102.2907}},{"name":"Kampung Bertam Ulu","district":"Melaka Tengah","state":"Melaka","coords":{"lat":2.2898,"lon":102.1928}},{"name":"Bentong Town","district":"Bentong","state":"Pahang","coords":{"lat":3.52229,"lon":101.90866}},{"name":"Bemban","district":"Jasin","state":"Melaka","coords":{"lat":2.2684,"lon":102.3746}},{"name":"Pantai Belimbing","district":"Alor Gajah","state":"Melaka","coords":{"lat":2.3436,"lon":102.2567}},{"name":"Batu Kawan","district":"Seberang Perai Selatan","state":"Penang","coords":{"lat":5.25822,"lon":100.42876}},{"name":"Kampung Batu Empat","district":"Daerah Kota Tinggi","state":"Johor","coords":{"lat":1.776,"lon":103.8736}},{"name":"Batu Berendam","district":"Melaka Tengah","state":"Melaka","coords":{"lat":2.2487,"lon":102.246}},{"name":"Batang Kali","district":"Hulu Selangor","state":"Selangor","coords":{"lat":3.4684,"lon":101.6389}},{"name":"Bagan Pulau Ketam","district":"Klang","state":"Selangor","coords":{"lat":3.01667,"lon":101.26667}},{"name":"Bagan Datoh","district":"Hilir Perak","state":"Perak","coords":{"lat":3.98333,"lon":100.78333}},{"name":"Ayer Tawar","district":"Manjung (Dinding)","state":"Perak","coords":{"lat":4.3055,"lon":100.7618}},{"name":"Ayer Itam","district":"Daerah Timur Laut","state":"Penang","coords":{"lat":5.40158,"lon":100.27815}},{"name":"Au Long","district":"Larut Matang & Selama","state":"Perak","coords":{"lat":4.85,"lon":100.71667}},{"name":"Penaga","district":"Seberang Perai Utara","state":"Penang","coords":{"lat":5.52719,"lon":100.3841}},{"name":"Kampung Teluk Kumbar","district":"Barat Daya","state":"Penang","coords":{"lat":5.28769,"lon":100.23379}},{"name":"Templer Bestari","district":"Gombak","state":"Selangor","coords":{"lat":3.29111,"lon":101.63802}},{"name":"Putrajaya","district":"W.P. Putrajaya","state":"Putrajaya","coords":{"lat":2.93527,"lon":101.69112}},{"name":"Kampung Kilim","district":"Langkawi","state":"Kedah","coords":{"lat":6.4055,"lon":99.8502}},{"name":"Kampung Baru Ulu Melaka","district":"Langkawi","state":"Kedah","coords":{"lat":6.35196,"lon":99.78791}},{"name":"Kampung Kok","district":"Langkawi","state":"Kedah","coords":{"lat":6.36759,"lon":99.68252}},{"name":"Kuala Teriang","district":"Langkawi","state":"Kedah","coords":{"lat":6.36377,"lon":99.71532}},{"name":"Kampung Batu Lima","district":"Sik","state":"Kedah","coords":{"lat":5.79345,"lon":100.68937}},{"name":"Kampung Bongor","district":"Baling","state":"Kedah","coords":{"lat":5.70397,"lon":100.91426}},{"name":"Sik","district":"Sik","state":"Kedah","coords":{"lat":5.83333,"lon":100.75}},{"name":"Kampung Sok","district":"Sik","state":"Kedah","coords":{"lat":5.77361,"lon":100.73051}},{"name":"Lengkuas","district":"Daerah Kota Setar","state":"Kedah","coords":{"lat":6.02782,"lon":100.38185}},{"name":"Kampung Alor Mengkudu","district":"Daerah Kota Setar","state":"Kedah","coords":{"lat":6.08838,"lon":100.39167}},{"name":"Gunong","district":"Daerah Kota Setar","state":"Kedah","coords":{"lat":6.19011,"lon":100.34135}},{"name":"Simpang Empat","district":"Daerah Kota Setar","state":"Kedah","coords":{"lat":6.02674,"lon":100.39603}},{"name":"Kampung Hutan Arau","district":"Perlis","state":"Perlis","coords":{"lat":6.42942,"lon":100.28174}},{"name":"Kampung Sungai Rusa","district":"Barat Daya","state":"Penang","coords":{"lat":5.38193,"lon":100.21729}},{"name":"Batu Hitam","district":"Barat Daya","state":"Penang","coords":{"lat":5.38961,"lon":100.23262}},{"name":"Tanjung Bungah","district":"Daerah Timur Laut","state":"Penang","coords":{"lat":5.46491,"lon":100.28165}},{"name":"Glugor","district":"Daerah Timur Laut","state":"Penang","coords":{"lat":5.37215,"lon":100.30708}},{"name":"Teloi Kanan","district":"Baling","state":"Kedah","coords":{"lat":5.71681,"lon":100.65819}},{"name":"Tikam Batu","district":"Kuala Muda","state":"Kedah","coords":{"lat":5.58718,"lon":100.44018}},{"name":"Kota Kuala Muda","district":"Kuala Muda","state":"Kedah","coords":{"lat":5.58822,"lon":100.37085}},{"name":"Selama Kedah","district":"Bandar Baharu","state":"Kedah","coords":{"lat":5.23242,"lon":100.68284}},{"name":"Bandar Permaisuri","district":"Setiu","state":"Terengganu","coords":{"lat":5.52241,"lon":102.74854}},{"name":"Bagan Samak","district":"Bandar Baharu","state":"Kedah","coords":{"lat":5.0895,"lon":100.56191}},{"name":"Kampung Kuala Besut","district":"Besut","state":"Terengganu","coords":{"lat":5.83297,"lon":102.55061}},{"name":"Cyberjaya","district":"Sepang","state":"Selangor","coords":{"lat":2.92281,"lon":101.65718}},{"name":"Kampung Lemal","district":"Pasir Mas","state":"Kelantan","coords":{"lat":6.03021,"lon":102.14126}},{"name":"Bandar Labuan","state":"Sabah","coords":{"lat":5.28319,"lon":115.25371}},{"name":"Bercham","district":"Daerah Kinta","state":"Perak","coords":{"lat":4.6411,"lon":101.1393}},{"name":"Kampung Manjoi","district":"Daerah Kinta","state":"Perak","coords":{"lat":4.6192,"lon":101.0685}},{"name":"Kampung Perak","district":"Daerah Jerantut","state":"Pahang","coords":{"lat":3.8682,"lon":102.5862}},{"name":"Bandar Tenggara","district":"Daerah Kota Tinggi","state":"Johor","coords":{"lat":1.87,"lon":103.6158}},{"name":"Kemajuan Tanah Inas Utara dan Selatan","district":"Kulaijaya","state":"Johor","coords":{"lat":1.7734,"lon":103.6098}},{"name":"Taman Mount Austin","district":"Daerah Johor Baharu","state":"Johor","coords":{"lat":1.5609,"lon":103.782}},{"name":"Johor Jaya","district":"Daerah Johor Baharu","state":"Johor","coords":{"lat":1.5392,"lon":103.8092}},{"name":"Taman Permas Jaya","district":"Daerah Johor Baharu","state":"Johor","coords":{"lat":1.511,"lon":103.8198}},{"name":"Kampung Parit Belahan Tampok","district":"Daerah Batu Pahat","state":"Johor","coords":{"lat":1.661,"lon":103.1936}},{"name":"Kawasan Penempatan Ulu Sungai Benut","district":"Daerah Keluang","state":"Johor","coords":{"lat":1.7541,"lon":103.2798}},{"name":"Kawasan Penempatan Ulu Benut Tiga","district":"Daerah Pontian","state":"Johor","coords":{"lat":1.7497,"lon":103.277}},{"name":"Kawasan Penempatan Ulu Benut Lima","district":"Daerah Keluang","state":"Johor","coords":{"lat":1.7439,"lon":103.3207}},{"name":"Kemajuan Tanah Bukit Besar","district":"Daerah Kota Tinggi","state":"Johor","coords":{"lat":1.7698,"lon":103.7064}},{"name":"Kemajuan Tanah Pasir Raja","district":"Daerah Kota Tinggi","state":"Johor","coords":{"lat":1.7578,"lon":103.6742}},{"name":"Kemajuan Tanah Bukit Ramon","district":"Daerah Kota Tinggi","state":"Johor","coords":{"lat":1.7532,"lon":103.7261}},{"name":"Kemajuan Tanah Ulu Tebrau","district":"Daerah Johor Baharu","state":"Johor","coords":{"lat":1.6358,"lon":103.756}},{"name":"Bandar Al-Muktafi Billah Shah","district":"Dungun","state":"Terengganu","coords":{"lat":4.6111,"lon":103.2092}},{"name":"Kampung Batu Sembilan Luar","district":"Kemaman","state":"Terengganu","coords":{"lat":4.3493,"lon":103.394}},{"name":"Kampung Sri Jaya","district":"Raub","state":"Pahang","coords":{"lat":3.8299,"lon":101.9277}},{"name":"Neram Satu","district":"Kemaman","state":"Terengganu","coords":{"lat":4.0129,"lon":103.2766}},{"name":"Kemajuan Tanah Bukit Goh","district":"Kuantan","state":"Pahang","coords":{"lat":3.9128,"lon":103.2572}},{"name":"Kemajuan Tanah Sungai Pancing Timur","district":"Kuantan","state":"Pahang","coords":{"lat":3.8177,"lon":103.1993}},{"name":"FELDA Bukit Damar","district":"Temerluh","state":"Pahang","coords":{"lat":3.5397,"lon":102.1189}},{"name":"Kemajuan Tanah Sungai Pancing Selatan","district":"Kuantan","state":"Pahang","coords":{"lat":3.7866,"lon":103.1683}},{"name":"Kampung Simpang Durian","district":"Jelebu","state":"Negeri Sembilan","coords":{"lat":3.1014,"lon":102.2222}},{"name":"Kemajuan Tanah Tembangau","district":"Bera","state":"Pahang","coords":{"lat":3.0321,"lon":102.5228}},{"name":"Muadzam Shah","district":"Pekan","state":"Pahang","coords":{"lat":3.0627,"lon":103.0892}},{"name":"Dengkil","district":"Sepang","state":"Selangor","coords":{"lat":2.86,"lon":101.6806}},{"name":"Bandar Tun Razak","district":"Daerha Rompin","state":"Pahang","coords":{"lat":2.9029,"lon":102.8877}},{"name":"Taman Sepang Putra","district":"Sepang","state":"Selangor","coords":{"lat":2.623,"lon":101.7027}},{"name":"Bandar Penawar","district":"Daerah Kota Tinggi","state":"Johor","coords":{"lat":1.5513,"lon":104.226}},{"name":"Sri Petaling","district":"WP. Kuala Lumpur","state":"Kuala Lumpur","coords":{"lat":3.06881,"lon":101.68971}},{"name":"Kampung Kuala Sepetang","district":"Larut Matang & Selama","state":"Perak","coords":{"lat":4.5429,"lon":100.6597}},{"name":"Seri Manjung","district":"Manjung (Dinding)","state":"Perak","coords":{"lat":4.1987,"lon":100.67}},{"name":"Kampung Teh","district":"Daerah Jerantut","state":"Pahang","coords":{"lat":3.9607,"lon":102.347}},{"name":"Lurah Bilut","district":"Bentong","state":"Pahang","coords":{"lat":3.6648,"lon":101.8888}},{"name":"Kampung Gedung Siam","district":"Kuantan","state":"Pahang","coords":{"lat":3.6942,"lon":102.9635}},{"name":"Kampung Ladang Sawit Lepar","district":"Pekan","state":"Pahang","coords":{"lat":3.5827,"lon":103.0962}},{"name":"Selayang Baru Utara","district":"Gombak","state":"Selangor","coords":{"lat":3.2549,"lon":101.6668}},{"name":"Kemajuan Tanah Bukit Kepayang","state":"Pahang","coords":{"lat":3.3229,"lon":102.5794}},{"name":"Kemajuan Tanah Sebertak","district":"Bera","state":"Pahang","coords":{"lat":3.2562,"lon":102.5975}},{"name":"Kemajuan Tanah Tementi","district":"Bera","state":"Pahang","coords":{"lat":3.2707,"lon":102.6076}},{"name":"Kemajuan Tanah Rentam","district":"Bera","state":"Pahang","coords":{"lat":3.2679,"lon":102.6228}},{"name":"Taman Dusun Setia","district":"Seremban","state":"Negeri Sembilan","coords":{"lat":2.7141,"lon":101.9644}},{"name":"Taman Seremban Jaya","district":"Seremban","state":"Negeri Sembilan","coords":{"lat":2.6831,"lon":101.97}},{"name":"Kawasan Perindustrian Cheng","state":"Melaka","coords":{"lat":2.2618,"lon":102.2317}},{"name":"Taman Pelangi","district":"Daerah Segamat","state":"Johor","coords":{"lat":2.428,"lon":102.6801}},{"name":"Kemajuan Tanah Chemplak","district":"Daerah Segamat","state":"Johor","coords":{"lat":2.38,"lon":102.944}},{"name":"Kemajuan Tanah Chemplak Barat","district":"Daerah Segamat","state":"Johor","coords":{"lat":2.388,"lon":102.934}},{"name":"Kangkar Baru","district":"Daerah Batu Pahat","state":"Johor","coords":{"lat":1.9891,"lon":103.0826}},{"name":"Kemajuan Tanah Bukit Aping Barat","district":"Daerah Kota Tinggi","state":"Johor","coords":{"lat":1.8294,"lon":103.9901}},{"name":"Kemajuan Tanah Bukit Aping Timur","district":"Daerah Kota Tinggi","state":"Johor","coords":{"lat":1.8348,"lon":104.0212}},{"name":"Kemajuan Tanah Simpang Waha","district":"Daerah Kota Tinggi","state":"Johor","coords":{"lat":1.7615,"lon":104.074}},{"name":"Kemajuan Tanah Bukit Easter","district":"Daerah Kota Tinggi","state":"Johor","coords":{"lat":1.7486,"lon":104.0777}},{"name":"Kemajuan Tanah Lok Heng Barat","state":"Johor","coords":{"lat":1.7225,"lon":104.0913}},{"name":"Pekan Serkat","district":"Daerah Pontian","state":"Johor","coords":{"lat":1.3033,"lon":103.4894}},{"name":"Taman Universiti","district":"Daerah Johor Baharu","state":"Johor","coords":{"lat":1.5331,"lon":103.6155}},{"name":"Kampung Jelutong Tengah","district":"Daerah Johor Baharu","state":"Johor","coords":{"lat":1.4714,"lon":103.5675}},{"name":"Kemayan","district":"Bera","state":"Pahang","coords":{"lat":3.1364,"lon":102.362}},{"name":"Linggi","district":"Port Dickson","state":"Negeri Sembilan","coords":{"lat":2.4857,"lon":102.0096}},{"name":"Data Kakus","district":"Tatau","state":"Sarawak","coords":{"lat":2.65465,"lon":113.62249}},{"name":"Subang Jaya","district":"WP. Kuala Lumpur","state":"Kuala Lumpur","coords":{"lat":3.04384,"lon":101.58062}},{"name":"Kemajuan Tanah Sungai Pancing Utara","district":"Kuantan","state":"Pahang","coords":{"lat":3.8382,"lon":103.1598}},{"name":"Taman Rajawali","district":"Bahagian Sandakan","state":"Sabah","coords":{"lat":5.89477,"lon":118.04576}},{"name":"Iskandar Puteri","district":"Daerah Johor Baharu","state":"Johor","coords":{"lat":1.39324,"lon":103.62322}},{"name":"Lidung Jelo","district":"Bahagian Kapit","state":"Sarawak","coords":{"lat":2.64848,"lon":114.78653}},{"name":"Long Ampan Aing or Abanang","district":"Belaga","state":"Sarawak","coords":{"lat":2.65671,"lon":114.73675}},{"name":"Putra Heights","district":"Petaling","state":"Selangor","coords":{"lat":2.99361,"lon":101.57255}},{"name":"Kajang","district":"Hulu Langat","state":"Selangor","coords":{"lat":2.99424,"lon":101.78875}},{"name":"Pantai Cenang","state":"Perlis","coords":{"lat":6.29369,"lon":99.72786}},{"name":"Bukit Bintang","district":"WP. Kuala Lumpur","state":"Kuala Lumpur","coords":{"lat":3.14657,"lon":101.71023}},{"name":"Bandar Sunway","district":"Petaling","state":"Selangor","coords":{"lat":3.0693,"lon":101.6074}},{"name":"Seri Iskandar","district":"Perak Tengah","state":"Perak","coords":{"lat":4.35993,"lon":100.98491}},{"name":"Bandar Puncak Alam","district":"Kuala Selangor","state":"Selangor","coords":{"lat":3.2389,"lon":101.42793}},{"name":"Kota Damansara","district":"Petaling","state":"Selangor","coords":{"lat":3.15454,"lon":101.58022}},{"name":"Damansara Damai","district":"Petaling","state":"Selangor","coords":{"lat":3.19893,"lon":101.59184}},{"name":"Kampung Haji Kudong","district":"Kuala Muda","state":"Kedah","coords":{"lat":5.58314,"lon":100.36238}},{"name":"Bandar 16 Sierra","district":"Sepang","state":"Selangor","coords":{"lat":2.97135,"lon":101.65464}},{"name":"Kuala Nerus","district":"Kuala Terengganu","state":"Terengganu","coords":{"lat":5.37293,"lon":103.02053}},{"name":"Bandar Sri Damansara","district":"Petaling","state":"Selangor","coords":{"lat":3.1903,"lon":101.61061}},{"name":"Selangau","district":"Selangau","state":"Sarawak","coords":{"lat":2.52477,"lon":112.32543}},{"name":"Taman Petaling","district":"WP. Kuala Lumpur","state":"Kuala Lumpur","coords":{"lat":3.19916,"lon":101.64983}},{"name":"Elmina","district":"Petaling","state":"Selangor","coords":{"lat":3.18523,"lon":101.52461}},{"name":"Denai Alam","district":"Petaling","state":"Selangor","coords":{"lat":3.16027,"lon":101.51501}},{"name":"Tropicana Indah","district":"Petaling","state":"Selangor","coords":{"lat":3.14165,"lon":101.59089}},{"name":"Laman Permai","district":"Petaling","state":"Selangor","coords":{"lat":3.17374,"lon":101.54204}},{"name":"Taman Greenwood","district":"Gombak","state":"Selangor","coords":{"lat":3.23208,"lon":101.70484}},{"name":"Taman Melati","district":"WP. Kuala Lumpur","state":"Kuala Lumpur","coords":{"lat":3.22124,"lon":101.72324}},{"name":"Ara Damansara","district":"Petaling","state":"Selangor","coords":{"lat":3.11898,"lon":101.58656}},{"name":"Desa Parkcity","district":"WP. Kuala Lumpur","state":"Kuala Lumpur","coords":{"lat":3.18611,"lon":101.62875}},{"name":"Kampung Setia","district":"Gombak","state":"Selangor","coords":{"lat":3.24177,"lon":101.53296}},{"name":"Assam Jawa","district":"Kuala Selangor","state":"Selangor","coords":{"lat":3.30126,"lon":101.28754}},{"name":"Kota Sarang Samut","district":"Yan","state":"Kedah","coords":{"lat":5.94554,"lon":100.36453}},{"name":"Mont Kiara","district":"WP. Kuala Lumpur","state":"Kuala Lumpur","coords":{"lat":3.16866,"lon":101.65076}},{"name":"Taman OUG","district":"WP. Kuala Lumpur","state":"Kuala Lumpur","coords":{"lat":3.07292,"lon":101.6763}},{"name":"Taman Ikan Emas","district":"WP. Kuala Lumpur","state":"Kuala Lumpur","coords":{"lat":3.11619,"lon":101.7202}},{"name":"Taman Tun Dr Ismail","district":"WP. Kuala Lumpur","state":"Kuala Lumpur","coords":{"lat":3.14506,"lon":101.62617}},{"name":"Bangsar","district":"WP. Kuala Lumpur","state":"Kuala Lumpur","coords":{"lat":3.12945,"lon":101.67004}},{"name":"Bukit Damansara","district":"WP. Kuala Lumpur","state":"Kuala Lumpur","coords":{"lat":3.15045,"lon":101.65483}},{"name":"Seremban 2","district":"Seremban","state":"Negeri Sembilan","coords":{"lat":2.68982,"lon":101.90766}},{"name":"Bukit Indah","district":"Daerah Johor Baharu","state":"Johor","coords":{"lat":1.47999,"lon":103.65959}},{"name":"Eco Sanctuary","district":"Kuala Langat","state":"Selangor","coords":{"lat":2.93703,"lon":101.53527}},{"name":"Batu Itam","district":"Barat Daya","state":"Penang","coords":{"lat":5.39513,"lon":100.21659}},{"name":"Wangsa Maju","district":"WP. Kuala Lumpur","state":"Kuala Lumpur","coords":{"lat":3.20056,"lon":101.73972}},{"name":"Seminyih","district":"Hulu Langat","state":"Selangor","coords":{"lat":2.94761,"lon":101.84695}},{"name":"Kuchai Lama","district":"WP. Kuala Lumpur","state":"Kuala Lumpur","coords":{"lat":3.08469,"lon":101.69086}},{"name":"Taman Naga Emas","district":"WP. Kuala Lumpur","state":"Kuala Lumpur","coords":{"lat":3.07775,"lon":101.69758}},{"name":"Bukit Gemuroh","district":"Barat Daya","state":"Penang","coords":{"lat":5.29775,"lon":100.21147}},{"name":"Forest City","state":"Johor","coords":{"lat":1.33884,"lon":103.58876}},{"name":"Taman Melawati","district":"Gombak","state":"Selangor","coords":{"lat":3.21083,"lon":101.74825}},{"name":"Perling","district":"Daerah Johor Baharu","state":"Johor","coords":{"lat":1.48061,"lon":103.68381}},{"name":"Chaah Bahru","district":"Daerah Batu Pahat","state":"Johor","coords":{"lat":2.09934,"lon":103.02219}},{"name":"Mukim Pulai","district":"Daerah Johor Baharu","state":"Johor","coords":{"lat":1.53333,"lon":103.66667}},{"name":"Penyabong","district":"Daerah Kota Tinggi","state":"Johor","coords":{"lat":1.63109,"lon":104.1469}},{"name":"Seremban 3","district":"Seremban","state":"Negeri Sembilan","coords":{"lat":2.67361,"lon":101.93111}},{"name":"Hendrop","district":"Gua Musang","state":"Kelantan","coords":{"lat":4.719,"lon":101.5521}},{"name":"Bandar Mahkota Cheras","district":"Hulu Langat","state":"Selangor","coords":{"lat":3.0542,"lon":101.79844}},{"name":"Mukim Tioman","district":"Daerah Mersing","state":"Johor","coords":{"lat":2.7825,"lon":104.17}},{"name":"Paya Terubong","district":"Daerah Timur Laut","state":"Penang","coords":{"lat":5.37278,"lon":100.27972}},{"name":"Bukit Jambul","district":"Daerah Timur Laut","state":"Penang","coords":{"lat":5.3337,"lon":100.28996}},{"name":"Kampung Wakaf Sku","district":"Kota Bharu","state":"Kelantan","coords":{"lat":6.11625,"lon":102.24229}},{"name":"Kampung Wakaf Stan","district":"Kota Bharu","state":"Kelantan","coords":{"lat":6.07985,"lon":102.28969}},{"name":"Ujong Pasir","district":"Melaka Tengah","state":"Melaka","coords":{"lat":2.18914,"lon":102.27262}},{"name":"Behrang Stesen","district":"Batang Padang","state":"Perak","coords":{"lat":3.74438,"lon":101.45125}},{"name":"Bandar Tun Hussein Onn","district":"Hulu Langat","state":"Selangor","coords":{"lat":3.05469,"lon":101.75939}},{"name":"FELDA Kemansul","district":"Bentong","state":"Pahang","coords":{"lat":3.28562,"lon":102.22616}},{"name":"Bandar Baru Enstek","district":"Seremban","state":"Negeri Sembilan","coords":{"lat":2.75106,"lon":101.76544}},{"name":"Bandar Baru Ayer Itam","district":"Daerah Timur Laut","state":"Penang","coords":{"lat":5.38907,"lon":100.28177}},{"name":"Sungai Chenaam","district":"Seberang Perai Selatan","state":"Penang","coords":{"lat":5.14609,"lon":100.4092}},{"name":"Gelung Pepuyu","district":"Perak Tengah","state":"Perak","coords":{"lat":4.36792,"lon":100.8201}},{"name":"Kota Samarahan","district":"Bahagian Samarahan","state":"Sarawak","coords":{"lat":1.46031,"lon":110.48821}},{"name":"Bukit Beruntung","district":"Hulu Selangor","state":"Selangor","coords":{"lat":3.41558,"lon":101.55709}},{"name":"Felda Gugusan Adela","district":"Daerah Kota Tinggi","state":"Johor","coords":{"lat":1.47877,"lon":104.17744}},{"name":"Sibu Jaya","district":"Bahagian Sibu","state":"Sarawak","coords":{"lat":2.24026,"lon":111.97135}},{"name":"Petagas","district":"Putatan","state":"Sabah","coords":{"lat":5.91161,"lon":116.04991}},{"name":"Kinabatangan","district":"Kinabatangan","state":"Sabah","coords":{"lat":5.58602,"lon":117.85083}},{"name":"Kampung Olak Lempit","district":"Kuala Langat","state":"Selangor","coords":{"lat":2.83558,"lon":101.59472}},{"name":"Setia Alam","district":"Petaling","state":"Selangor","coords":{"lat":3.10155,"lon":101.45565}},{"name":"Brinchang","district":"Cameron Highlands","state":"Pahang","coords":{"lat":4.4911,"lon":101.38843}},{"name":"Blue Valley","district":"Cameron Highlands","state":"Pahang","coords":{"lat":4.58293,"lon":101.41418}},{"name":"Ketengah Jaya","district":"Dungun","state":"Terengganu","coords":{"lat":4.57218,"lon":103.31879}},{"name":"Taman Sri Sinar","district":"WP. Kuala Lumpur","state":"Kuala Lumpur","coords":{"lat":3.1868,"lon":101.65085}},{"name":"Bandar Kinrara","district":"Petaling","state":"Selangor","coords":{"lat":3.04926,"lon":101.64153}},{"name":"Bandar Bukit Raja","district":"Klang","state":"Selangor","coords":{"lat":3.08737,"lon":101.43339}},{"name":"Pandamaran","district":"Klang","state":"Selangor","coords":{"lat":3.01083,"lon":101.42081}},{"name":"Bandar Parklands","district":"Klang","state":"Selangor","coords":{"lat":2.97457,"lon":101.45721}},{"name":"Bandar Botanic","district":"Klang","state":"Selangor","coords":{"lat":2.98794,"lon":101.43966}},{"name":"Bandar Sri Sendayan","district":"Seremban","state":"Negeri Sembilan","coords":{"lat":2.67375,"lon":101.8721}},{"name":"Bandar Springhill","district":"Port Dickson","state":"Negeri Sembilan","coords":{"lat":2.60127,"lon":101.86408}},{"name":"Bandar Country Homes","district":"Gombak","state":"Selangor","coords":{"lat":3.32752,"lon":101.53106}},{"name":"Proton City","district":"Batang Padang","state":"Perak","coords":{"lat":3.74287,"lon":101.5352}},{"name":"FELDA Soeharto","district":"Hulu Selangor","state":"Selangor","coords":{"lat":3.67963,"lon":101.39261}},{"name":"FELCRA Lubek Sireh","district":"Perlis","state":"Perlis","coords":{"lat":6.65007,"lon":100.22412}},{"name":"Alam Damai","district":"WP. Kuala Lumpur","state":"Kuala Lumpur","coords":{"lat":3.06028,"lon":101.7408}},{"name":"SS2","district":"WP. Kuala Lumpur","state":"Kuala Lumpur","coords":{"lat":3.12036,"lon":101.62246}},{"name":"Sungai Koyan","district":"Lipis","state":"Pahang","coords":{"lat":4.21864,"lon":101.8015}},{"name":"Padang Tengku","district":"Lipis","state":"Pahang","coords":{"lat":4.23238,"lon":101.98986}},{"name":"Sungai Jawi","district":"Seberang Perai Selatan","state":"Penang","coords":{"lat":5.19779,"lon":100.49244}},{"name":"Bandar Saujana Utama","district":"Kuala Selangor","state":"Selangor","coords":{"lat":3.20663,"lon":101.47729}},{"name":"Bukit Rahman Putra","district":"Petaling","state":"Selangor","coords":{"lat":3.21727,"lon":101.5608}},{"name":"FELDA Maokil","district":"Daerah Muar","state":"Johor","coords":{"lat":2.29562,"lon":102.96786}},{"name":"Setia Tropika","district":"Daerah Johor Baharu","state":"Johor","coords":{"lat":1.54631,"lon":103.71829}},{"name":"Bandar Tasik Puteri","district":"Gombak","state":"Selangor","coords":{"lat":3.28531,"lon":101.4741}},{"name":"Desa Petaling","district":"WP. Kuala Lumpur","state":"Kuala Lumpur","coords":{"lat":3.08385,"lon":101.70895}},{"name":"Bukit Kerinchi","district":"WP. Kuala Lumpur","state":"Kuala Lumpur","coords":{"lat":3.10628,"lon":101.66761}},{"name":"Kampung Baru","district":"WP. Kuala Lumpur","state":"Kuala Lumpur","coords":{"lat":3.16544,"lon":101.70394}},{"name":"Titiwangsa","district":"WP. Kuala Lumpur","state":"Kuala Lumpur","coords":{"lat":3.17822,"lon":101.70312}},{"name":"Metro City New Township","district":"Bahagian Kuching","state":"Sarawak","coords":{"lat":1.56798,"lon":110.30588}},{"name":"Bandar Laguna Merbok","district":"Kuala Muda","state":"Kedah","coords":{"lat":5.68919,"lon":100.49622}},{"name":"Horizon Hills","district":"Daerah Johor Baharu","state":"Johor","coords":{"lat":1.45768,"lon":103.64554}},{"name":"Bandar Putra Kulai","district":"Kulaijaya","state":"Johor","coords":{"lat":1.64958,"lon":103.62661}},{"name":"Taman Scientex","district":"Daerah Johor Baharu","state":"Johor","coords":{"lat":1.51219,"lon":103.9166}},{"name":"Bandar Seri Alam","district":"Daerah Johor Baharu","state":"Johor","coords":{"lat":1.50434,"lon":103.87525}},{"name":"FELDA Semenchu","district":"Daerah Kota Tinggi","state":"Johor","coords":{"lat":1.56929,"lon":104.09993}},{"name":"FELDA Chini","district":"Pekan","state":"Pahang","coords":{"lat":3.37457,"lon":102.94343}},{"name":"Kota Warisan","district":"Sepang","state":"Selangor","coords":{"lat":2.82388,"lon":101.69365}},{"name":"Bandar Baru Salak Tinggi","district":"Sepang","state":"Selangor","coords":{"lat":2.81232,"lon":101.73562}},{"name":"Bandar Utama","district":"WP. Kuala Lumpur","state":"Kuala Lumpur","coords":{"lat":3.14818,"lon":101.61407}},{"name":"Brickfields","district":"WP. Kuala Lumpur","state":"Kuala Lumpur","coords":{"lat":3.12966,"lon":101.68424}},{"name":"Bukit Jalil","district":"WP. Kuala Lumpur","state":"Kuala Lumpur","coords":{"lat":3.04913,"lon":101.68036}},{"name":"Mutiara Damansara","district":"WP. Kuala Lumpur","state":"Kuala Lumpur","coords":{"lat":3.15724,"lon":101.60822}},{"name":"Taman Desa","district":"WP. Kuala Lumpur","state":"Kuala Lumpur","coords":{"lat":3.10591,"lon":101.68683}},{"name":"FELDA Taib Andak","district":"Kulaijaya","state":"Johor","coords":{"lat":1.7336,"lon":103.64521}}]